City ID,City,Cloudiness,Country,Date,Humidity,Lat,Lng,Max Temp,Wind Speed
0,The Valley,40,AI,2021-12-02 15:43:27,70,18.217,-63.0578,303.07,6.17
1,Shīeli,100,KZ,2021-12-02 15:43:27,36,44.1667,66.75,286.08,1.5
2,La Unión,97,PE,2021-12-02 15:43:27,52,-5.4,-80.75,299.36,2.86
3,Cape Town,20,ZA,2021-12-02 15:37:09,46,-33.9258,18.4232,293.76,8.75
4,Cairns,89,AU,2021-12-02 15:40:20,90,-16.9167,145.7667,300.12,1.54
5,Fortuna,90,US,2021-12-02 15:42:39,76,40.5982,-124.1573,283.35,0.0
6,Ulladulla,55,AU,2021-12-02 15:43:28,93,-35.35,150.4667,290.86,1.88
7,Yellowknife,75,CA,2021-12-02 15:39:04,89,62.456,-114.3525,255.68,5.14
8,Lata,4,PT,2021-12-02 15:42:11,54,40.1629,-8.3327,286.51,3.62
9,Rikitea,9,PF,2021-12-02 15:34:17,77,-23.1203,-134.9692,297.33,8.13
10,Mataura,98,NZ,2021-12-02 15:39:10,91,-46.1927,168.8643,286.19,0.79
11,Cherskiy,100,RU,2021-12-02 15:39:17,84,68.75,161.3,247.05,2.33
12,Saint-Philippe,47,RE,2021-12-02 15:39:01,84,-21.3585,55.7679,298.92,5.98
13,Nanortalik,98,GL,2021-12-02 15:42:19,85,60.1432,-45.2371,272.38,6.47
14,Atuona,70,PF,2021-12-02 15:40:31,78,-9.8,-139.0333,298.82,9.65
15,Hithadhoo,79,MV,2021-12-02 15:39:05,76,-0.6,73.0833,301.15,3.11
16,Misratah,0,LY,2021-12-02 15:43:30,33,32.3754,15.0925,292.97,5.34
17,Jamestown,90,US,2021-12-02 15:40:13,82,42.097,-79.2353,282.92,4.47
18,Hong Kong,11,HK,2021-12-02 15:35:53,34,22.2855,114.1577,292.18,1.79
19,Ushuaia,75,AR,2021-12-02 15:39:06,54,-54.8,-68.3,283.96,5.66
20,Saint Paul Harbor,1,US,2021-12-02 15:38:58,58,57.79,-152.4072,265.88,13.38
21,Kajaani,40,FI,2021-12-02 15:43:31,85,64.2273,27.7285,255.18,0.51
22,Ambon City,20,ID,2021-12-02 15:43:31,94,-3.6954,128.1814,296.23,2.06
23,East London,20,ZA,2021-12-02 15:39:02,82,-33.0153,27.9116,291.67,9.77
24,Punta Arenas,75,CL,2021-12-02 15:39:19,50,-53.15,-70.9167,286.21,9.77
25,Pittsfield,75,US,2021-12-02 15:44:07,86,42.4501,-73.2454,282.5,0.45
26,Kanniyākumāri,82,IN,2021-12-02 15:44:07,82,8.0833,77.5667,299.73,2.79
27,Tiksi,73,RU,2021-12-02 15:41:12,100,71.6872,128.8694,238.75,1.08
28,Butaritari,94,KI,2021-12-02 15:39:09,77,3.0707,172.7902,300.45,5.6
29,Dikson,100,RU,2021-12-02 15:39:01,95,73.5069,80.5464,250.82,1.32
30,Tasiilaq,75,GL,2021-12-02 15:40:35,90,65.6145,-37.6368,271.24,3.94
31,Vaini,20,TO,2021-12-02 15:39:18,88,-21.2,-175.2,297.24,3.6
32,Umba,81,RU,2021-12-02 15:44:28,87,66.6871,34.3429,268.74,5.32
33,Port Augusta,8,AU,2021-12-02 15:44:28,60,-32.5,137.7667,289.23,7.66
34,Severo-Kuril'sk,91,RU,2021-12-02 15:40:33,75,50.6789,156.125,273.58,15.66
35,Whitianga,100,NZ,2021-12-02 15:44:28,90,-36.8333,175.7,290.38,3.83
36,Qaqortoq,92,GL,2021-12-02 15:44:29,98,60.7167,-46.0333,272.43,1.6
37,Paciran,100,ID,2021-12-02 15:45:14,84,-6.8767,112.3761,299.55,2.58
38,Mandera,29,KE,2021-12-02 15:45:14,34,3.9366,41.867,305.34,1.69
39,Hermanus,55,ZA,2021-12-02 15:34:54,62,-34.4187,19.2345,293.09,6.79
40,Egvekinot,100,RU,2021-12-02 15:40:20,96,66.3167,-179.1667,257.43,3.33
41,Albany,100,US,2021-12-02 15:40:30,88,42.6001,-73.9662,283.12,0.45
42,Ponta do Sol,5,PT,2021-12-02 15:39:48,48,32.6667,-17.1,293.77,2.63
43,Qaanaaq,100,GL,2021-12-02 15:39:00,67,77.484,-69.3632,259.08,3.29
44,Key West,1,US,2021-12-02 15:41:12,66,24.5557,-81.7826,299.15,2.57
45,Ahipara,99,NZ,2021-12-02 15:41:10,94,-35.1667,173.1667,288.56,2.45
46,Ilulissat,90,GL,2021-12-02 15:38:13,93,69.2167,-51.1,271.16,7.72
47,Yaan,87,NG,2021-12-02 15:45:16,22,7.3833,8.5667,308.16,1.36
48,Makokou,100,GA,2021-12-02 15:45:16,89,0.5738,12.8642,297.84,0.46
49,Mazamet,75,FR,2021-12-02 15:45:16,93,43.49,2.373,279.32,6.17
50,Bambous Virieux,75,MU,2021-12-02 15:41:18,78,-20.3428,57.7575,300.29,5.14
51,Marawi,100,PH,2021-12-02 15:40:36,95,7.9986,124.2928,293.51,0.75
52,Flinders,44,AU,2021-12-02 15:42:48,83,-34.5833,150.8552,293.92,2.78
53,Mahébourg,75,MU,2021-12-02 15:40:31,78,-20.4081,57.7,300.31,5.14
54,Ust'-Ilimsk,100,RU,2021-12-02 15:45:18,97,58.0006,102.6619,264.47,1.59
55,Kavieng,75,PG,2021-12-02 15:45:18,75,-2.5744,150.7967,300.78,1.98
56,Belaya Gora,100,RU,2021-12-02 15:45:19,99,68.5333,146.4167,238.05,2.56
57,Comodoro Rivadavia,75,AR,2021-12-02 15:40:59,38,-45.8667,-67.5,288.07,6.69
58,Alofi,38,NU,2021-12-02 15:41:12,94,-19.0595,-169.9187,296.09,2.06
59,Seymchan,100,RU,2021-12-02 15:45:19,98,62.8833,152.4333,242.88,3.16
60,Belyy Yar,100,RU,2021-12-02 15:45:20,85,53.6039,91.3903,261.09,2.0
61,Saldanha,1,ZA,2021-12-02 15:41:33,68,-33.0117,17.9442,294.18,9.59
62,Castro,60,BR,2021-12-02 15:41:31,41,-24.7911,-50.0119,300.71,3.14
63,Tanout,55,NE,2021-12-02 15:45:20,12,14.9709,8.8879,301.92,5.92
64,Busselton,0,AU,2021-12-02 15:39:05,74,-33.65,115.3333,286.53,8.47
65,Challapata,93,BO,2021-12-02 15:45:20,42,-18.9,-66.7667,289.04,2.25
66,Mossamedes,75,AO,2021-12-02 15:39:02,69,-15.1961,12.1522,298.5,8.75
67,Jumla,100,NP,2021-12-02 15:39:04,99,29.2747,82.1838,280.75,1.4
68,Kotel'nich,97,RU,2021-12-02 15:45:21,84,58.3089,48.348,267.88,5.24
69,Kahului,1,US,2021-12-02 15:41:54,94,20.8947,-156.47,293.74,2.57
70,Kousséri,9,CM,2021-12-02 15:45:21,12,12.0769,15.0306,309.13,3.6
71,Port Alfred,95,ZA,2021-12-02 15:40:10,69,-33.5906,26.891,292.27,9.18
72,Kaitangata,89,NZ,2021-12-02 15:40:03,97,-46.2817,169.8464,285.23,2.06
73,Te Anau,100,NZ,2021-12-02 15:39:23,99,-45.4167,167.7167,285.32,0.85
74,Manbij,0,SY,2021-12-02 15:45:22,42,36.5281,37.9549,282.58,1.67
75,Bluff,100,NZ,2021-12-02 15:39:03,94,-46.6,168.3333,286.37,2.51
76,Pevek,92,RU,2021-12-02 15:45:22,95,69.7008,170.3133,247.03,1.75
77,Chestermere,40,CA,2021-12-02 15:45:23,94,51.0334,-113.8187,273.6,2.06
78,Nikolskoye,100,RU,2021-12-02 15:39:03,97,59.7035,30.7861,264.09,1.66
79,Chardara,96,KZ,2021-12-02 15:45:23,29,41.2547,67.9692,287.94,5.68
80,Souillac,75,MU,2021-12-02 15:42:16,78,-20.5167,57.5167,300.36,5.14
81,Anori,62,BR,2021-12-02 15:45:23,61,-3.7728,-61.6442,304.51,1.13
82,New Norfolk,35,AU,2021-12-02 15:39:14,70,-42.7826,147.0587,285.87,0.45
83,Hilo,1,US,2021-12-02 15:39:48,84,19.7297,-155.09,297.19,2.06
84,Kieta,64,PG,2021-12-02 15:45:24,81,-6.2167,155.6333,299.03,0.96
85,Bredasdorp,75,ZA,2021-12-02 15:40:04,59,-34.5322,20.0403,291.64,4.12
86,Guánica,42,PR,2021-12-02 15:45:24,67,17.9716,-66.908,305.36,4.92
87,George Town,40,MY,2021-12-02 15:38:13,84,5.4112,100.3354,300.31,3.58
88,Durban,96,ZA,2021-12-02 15:45:25,87,-29.8579,31.0292,298.66,4.47
89,Wonthaggi,90,AU,2021-12-02 15:45:25,76,-38.6044,145.5913,287.7,4.85
90,North Myrtle Beach,1,US,2021-12-02 15:45:26,62,33.816,-78.68,292.66,5.14
91,Pacific Grove,90,US,2021-12-02 15:41:27,93,36.6177,-121.9166,292.13,1.54
92,Faanui,48,PF,2021-12-02 15:39:13,72,-16.4833,-151.75,300.51,8.13
93,Chui,92,UY,2021-12-02 15:41:02,58,-33.6971,-53.4616,293.12,4.17
94,Kapaa,20,US,2021-12-02 15:39:12,85,22.0752,-159.319,297.33,5.66
95,Kashgar,20,CN,2021-12-02 15:45:26,43,39.4547,75.9797,271.71,2.0
96,Hobart,40,AU,2021-12-02 15:39:05,73,-42.8794,147.3294,286.07,1.79
97,Port-Gentil,40,GA,2021-12-02 15:45:27,79,-0.7193,8.7815,302.13,6.69
98,Peniche,1,PT,2021-12-02 15:45:27,62,39.3558,-9.3811,287.45,11.82
99,Ponta Delgada,75,PT,2021-12-02 15:42:41,77,37.7333,-25.6667,293.98,2.06
100,Lhokseumawe,100,ID,2021-12-02 15:45:28,86,5.1801,97.1507,298.62,1.97
101,Torbay,20,CA,2021-12-02 15:39:01,70,47.6666,-52.7314,280.14,7.2
102,Arraial do Cabo,20,BR,2021-12-02 15:40:49,73,-22.9661,-42.0278,300.13,5.14
103,Esperance,92,AU,2021-12-02 15:40:59,75,-33.8667,121.9,288.06,7.39
104,Pangnirtung,90,CA,2021-12-02 15:40:06,73,66.1451,-65.7125,262.15,3.09
105,Upernavik,100,GL,2021-12-02 15:40:21,88,72.7868,-56.1549,271.61,3.08
106,Airai,100,TL,2021-12-02 15:39:16,84,-8.9266,125.4092,289.93,1.0
107,Razdolinsk,100,RU,2021-12-02 15:45:29,91,58.4211,94.6658,269.06,4.48
108,Port Hardy,40,CA,2021-12-02 15:40:37,93,50.6996,-127.4199,277.15,3.6
109,Constitución,100,CL,2021-12-02 15:40:34,61,-35.3333,-72.4167,291.21,5.6
110,Shimoda,0,JP,2021-12-02 15:45:30,71,34.6667,138.95,283.72,4.37
111,Carnarvon,0,AU,2021-12-02 15:40:42,78,-24.8667,113.6333,294.19,8.75
112,Ribeira Grande,75,PT,2021-12-02 15:41:02,88,38.5167,-28.7,291.37,2.57
113,Bengkulu,82,ID,2021-12-02 15:39:10,86,-3.8004,102.2655,298.11,1.96
114,Port Elizabeth,20,ZA,2021-12-02 15:39:07,68,-33.918,25.5701,291.54,11.32
115,Lodja,94,CD,2021-12-02 15:45:31,91,-3.4833,23.4333,297.09,0.78
116,Monrovia,89,LR,2021-12-02 15:45:31,72,6.3005,-10.7969,301.95,4.16
117,Vanderhoof,4,CA,2021-12-02 15:45:31,67,54.0166,-124.0198,269.4,2.1
118,Novoagansk,100,RU,2021-12-02 15:45:32,88,61.9449,76.6625,272.53,6.44
119,Banda Aceh,100,ID,2021-12-02 15:45:32,79,5.5577,95.3222,299.85,0.39
120,Grand Forks,90,US,2021-12-02 15:45:32,93,47.9417,-97.4337,272.97,0.0
121,Saint-Pierre,75,RE,2021-12-02 15:41:26,80,-21.3393,55.4781,298.97,9.26
122,Altamira,75,BR,2021-12-02 15:45:33,66,-3.2033,-52.2064,305.2,1.54
123,Nuuk,40,GL,2021-12-02 15:40:59,80,64.1835,-51.7216,270.49,5.66
124,Avarua,90,CK,2021-12-02 15:39:17,94,-21.2078,-159.775,297.18,7.72
125,Olafsvik,100,IS,2021-12-02 15:45:33,79,64.8945,-23.7142,277.45,12.03
126,San Fernando,92,PH,2021-12-02 15:45:33,78,15.0286,120.6898,299.16,2.89
127,Ballina,90,AU,2021-12-02 15:45:34,96,-28.8667,153.5667,294.25,4.12
128,Loandjili,20,CG,2021-12-02 15:45:34,79,-4.7561,11.8578,302.21,4.63
129,Thompson,40,CA,2021-12-02 15:35:22,76,55.7435,-97.8558,243.24,0.0
130,Kudahuvadhoo,31,MV,2021-12-02 15:45:34,78,2.6708,72.8944,301.15,4.61
131,Tarrafal,100,CV,2021-12-02 15:45:35,65,15.2833,-23.7667,299.59,8.94
132,Nakamura,55,JP,2021-12-02 15:45:35,81,32.9833,132.9333,278.09,1.84
133,Saint George,1,US,2021-12-02 15:42:56,45,37.1041,-113.5841,286.68,1.54
134,Morón,0,AR,2021-12-02 15:41:35,55,-34.6534,-58.6198,299.26,1.79
135,Yamada,9,JP,2021-12-02 15:40:57,76,39.4667,141.95,276.71,4.35
136,Hasaki,57,JP,2021-12-02 15:40:17,53,35.7333,140.8333,281.37,9.9
137,High Level,90,CA,2021-12-02 15:45:36,92,58.5169,-117.136,257.21,7.2
138,Reggio Calabria,13,IT,2021-12-02 15:45:37,63,38.1105,15.6613,290.68,4.47
139,Yangi Marg`ilon,100,UZ,2021-12-02 15:45:37,60,40.4272,71.7189,279.83,2.06
140,Rewāri,97,IN,2021-12-02 15:45:37,33,28.1833,76.6167,289.03,1.87
141,Mehamn,98,NO,2021-12-02 15:45:38,69,71.0357,27.8492,273.25,5.76
142,Deputatsky,99,RU,2021-12-02 15:45:38,100,69.3,139.9,235.07,0.75
143,Nampula,20,MZ,2021-12-02 15:42:37,35,-15.1165,39.2666,306.12,5.66
144,Baruun-Urt,9,MN,2021-12-02 15:45:38,81,46.6806,113.2792,264.23,4.16
145,Khatanga,66,RU,2021-12-02 15:41:02,100,71.9667,102.5,231.04,2.16
146,Puerto Madryn,62,AR,2021-12-02 15:45:39,32,-42.7692,-65.0385,292.1,4.39
147,Dunedin,77,NZ,2021-12-02 15:41:24,93,-45.8742,170.5036,286.64,4.2
148,Nālūt,58,LY,2021-12-02 15:45:39,16,30.3333,10.85,289.57,3.62
149,Fukuechō,72,JP,2021-12-02 15:45:40,57,32.6881,128.8419,285.43,5.85
150,Caravelas,66,BR,2021-12-02 15:38:57,74,-17.7125,-39.2481,300.44,3.04
151,Oruzgan,55,AF,2021-12-02 15:45:41,28,32.8333,66.0,279.89,0.49
152,Yerbogachën,78,RU,2021-12-02 15:40:38,95,61.2767,108.0108,246.18,1.01
153,Vostok,100,RU,2021-12-02 15:45:41,96,46.4856,135.8833,264.88,2.17
154,Erdenet,84,MN,2021-12-02 15:45:42,79,49.0333,104.0833,262.71,1.99
155,Khasan,58,RU,2021-12-02 15:45:42,69,42.4308,130.6434,272.96,6.92
156,Voznesen'ye,59,RU,2021-12-02 15:45:42,91,61.0106,35.4781,262.28,4.13
157,Ambilobe,30,MG,2021-12-02 15:45:43,60,-13.2,49.05,300.22,1.87
158,Shingū,49,JP,2021-12-02 15:45:43,78,33.7333,135.9833,280.34,1.72
159,Severnyy,75,RU,2021-12-02 15:45:43,80,50.677,36.5532,274.17,5.0
160,Evora,1,PT,2021-12-02 15:45:44,42,38.5667,-7.9,286.67,4.87
161,Haverhill,90,US,2021-12-02 15:45:37,90,42.7762,-71.0773,285.66,0.45
162,Nador,40,MA,2021-12-02 15:39:26,62,35.174,-2.9287,287.29,5.66
163,Praia da Vitória,75,PT,2021-12-02 15:38:58,94,38.7333,-27.0667,293.01,3.39
164,Hofn,75,IS,2021-12-02 15:45:44,87,64.2539,-15.2082,276.16,7.72
165,Quatre Cocos,23,MU,2021-12-02 15:42:29,78,-20.2078,57.7625,300.21,5.38
166,Semey,0,KZ,2021-12-02 15:45:45,68,50.4111,80.2275,268.53,6.66
167,Yabrūd,0,SY,2021-12-02 15:45:45,61,33.9674,36.6574,282.96,0.93
168,Bubaque,7,GW,2021-12-02 15:41:38,58,11.2833,-15.8333,301.22,3.97
169,Cidreira,95,BR,2021-12-02 15:40:59,67,-30.1811,-50.2056,293.43,4.68
170,Labuhan,100,ID,2021-12-02 15:45:46,85,-6.8844,112.2051,299.26,1.75
171,Barrow,90,US,2021-12-02 15:39:24,70,71.2906,-156.7887,250.16,3.09
172,Pochutla,83,MX,2021-12-02 15:45:46,45,15.7432,-96.4661,303.05,1.82
173,Chokurdakh,77,RU,2021-12-02 15:39:08,100,70.6333,147.9167,233.7,2.8
174,Río Gallegos,40,AR,2021-12-02 15:41:54,33,-51.6226,-69.2181,289.18,12.35
175,Pa Sang,95,TH,2021-12-02 15:45:47,84,18.5262,98.9394,295.26,0.35
176,Kaohsiung City,75,TW,2021-12-02 15:45:47,74,22.6163,120.3133,291.12,1.34
177,Rome,90,US,2021-12-02 15:45:47,86,43.2128,-75.4557,282.41,3.09
178,São Filipe,100,CV,2021-12-02 15:41:24,66,14.8961,-24.4956,297.26,4.93
179,Eilat,76,IL,2021-12-02 15:45:48,45,29.5581,34.9482,292.45,5.53
180,Chernyshevsk,43,RU,2021-12-02 15:45:48,94,52.5243,117.0174,253.3,0.57
181,Mapiri,100,BO,2021-12-02 15:45:48,64,-15.25,-68.1667,302.02,0.52
182,Wajir,40,KE,2021-12-02 15:45:49,40,1.7471,40.0573,306.13,2.57
183,Nhulunbuy,100,AU,2021-12-02 15:45:49,89,-12.2333,136.7667,300.49,0.0
184,Makakilo City,1,US,2021-12-02 15:45:50,85,21.3469,-158.0858,294.98,2.06
185,Kosa,98,RU,2021-12-02 15:45:50,94,59.9445,54.9977,266.38,3.91
186,Hede,0,CN,2021-12-02 15:45:50,48,33.7681,120.2517,276.94,3.26
187,Anloga,72,GH,2021-12-02 15:45:50,73,5.7947,0.8973,304.27,5.95
188,São Francisco do Sul,75,BR,2021-12-02 15:45:51,73,-26.2433,-48.6381,296.1,0.51
189,Menzel Salem,16,TN,2021-12-02 15:45:51,38,35.8567,8.4765,286.15,6.75
190,Zarubino,67,RU,2021-12-02 15:45:51,61,42.63,131.0922,273.91,10.22
191,Norman Wells,90,CA,2021-12-02 15:42:55,64,65.282,-126.8329,247.17,8.75
192,Kiryat Gat,35,IL,2021-12-02 15:41:01,29,31.61,34.7642,291.38,2.61
193,Ambanja,18,MG,2021-12-02 15:45:52,85,-13.6833,48.45,301.11,1.56
194,Narsingdi,6,BD,2021-12-02 15:45:52,55,23.9208,90.7181,299.16,2.01
195,Bull Savanna,91,JM,2021-12-02 15:45:53,59,17.8868,-77.5902,301.31,1.71
196,Sitka,90,US,2021-12-02 15:39:15,80,57.0531,-135.33,274.09,2.06
197,Biak,100,ID,2021-12-02 15:45:53,77,-0.9131,122.8766,298.65,0.1
198,Asău,100,RO,2021-12-02 15:45:53,76,46.4333,26.4,278.86,2.43
199,Biloela,24,AU,2021-12-02 15:45:54,88,-24.4167,150.5,295.51,2.52
200,Tabas,100,IR,2021-12-02 15:40:43,26,33.5959,56.9244,291.55,3.56
201,Najrān,0,SA,2021-12-02 15:45:55,19,17.4924,44.1277,295.51,2.77
202,Provideniya,100,RU,2021-12-02 15:40:41,86,64.3833,-173.3,256.61,2.99
203,Rexburg,1,US,2021-12-02 15:45:56,86,43.826,-111.7897,275.74,0.0
204,Areni,0,AM,2021-12-02 15:45:56,47,39.7191,45.1799,278.35,1.87
205,Mar del Plata,0,AR,2021-12-02 15:39:50,82,-38.0023,-57.5575,294.16,9.39
206,Balabac,100,PH,2021-12-02 15:45:57,80,7.9868,117.0645,300.07,4.4
207,Nago,56,JP,2021-12-02 15:45:57,70,26.5881,127.9761,290.24,4.51
208,San Cristobal,81,VE,2021-12-02 15:42:46,54,7.7669,-72.225,296.25,3.17
209,Lebu,100,CL,2021-12-02 15:40:46,68,-37.6167,-73.65,286.8,8.21
210,Codrington,19,AU,2021-12-02 15:42:38,90,-38.2667,141.9667,282.93,1.86
211,Djibo,94,BF,2021-12-02 15:45:58,9,14.1022,-1.6306,308.28,3.58
212,Dalby,16,AU,2021-12-02 15:45:58,90,-27.1833,151.2667,294.25,3.52
213,Khorramshahr,0,IR,2021-12-02 15:45:58,49,30.4397,48.1664,294.13,2.06
214,Ancud,4,CL,2021-12-02 15:45:59,53,-41.8697,-73.8203,285.89,4.96
215,Yulara,4,AU,2021-12-02 15:39:20,18,-25.2406,130.9889,301.06,3.09
216,Laas,100,IT,2021-12-02 15:41:36,93,46.6166,10.7002,276.5,3.39
217,Haines Junction,100,CA,2021-12-02 15:41:01,66,60.7522,-137.5108,259.12,5.14
218,Butembo,71,CD,2021-12-02 15:45:59,98,0.15,29.2833,288.66,0.18
219,Cabo San Lucas,3,MX,2021-12-02 15:42:14,70,22.8909,-109.9124,299.55,1.46
220,Tuktoyaktuk,90,CA,2021-12-02 15:39:00,76,69.4541,-133.0374,245.15,6.17
221,Bethel,1,US,2021-12-02 15:40:02,76,41.3712,-73.414,287.04,0.89
222,Hervey Bay,7,AU,2021-12-02 15:46:00,93,-25.2986,152.8535,295.95,0.45
223,Zhuhai,0,CN,2021-12-02 15:46:01,41,22.2769,113.5678,292.03,5.14
224,Solnechnyy,78,RU,2021-12-02 15:46:01,95,50.7214,136.6319,254.64,1.26
225,Iqaluit,75,CA,2021-12-02 15:46:03,62,63.7506,-68.5145,267.0,4.92
226,Marzuq,0,YE,2021-12-02 15:42:15,33,14.4,46.4667,291.11,0.9
227,Esil,91,KZ,2021-12-02 15:46:03,97,51.9556,66.4042,274.21,5.58
228,Uyemskiy,90,RU,2021-12-02 15:46:03,85,64.4743,40.8524,265.18,1.0
229,Tarauacá,80,BR,2021-12-02 15:46:04,70,-8.1614,-70.7656,302.78,2.2
230,Khani,94,GE,2021-12-02 15:42:43,89,41.9563,42.9566,274.91,1.32
231,Caucayá,99,CO,2021-12-02 15:46:04,57,-0.1934,-74.7819,303.47,2.41
232,Longyearbyen,40,SJ,2021-12-02 15:41:31,59,78.2186,15.6401,270.06,8.75
233,Huicheng,2,CN,2021-12-02 15:46:05,65,23.0385,116.2899,285.12,3.13
234,Saint-Ambroise,100,CA,2021-12-02 15:46:05,74,48.5501,-71.3324,271.45,4.12
235,Longyan,0,CN,2021-12-02 15:46:05,58,25.1072,117.0225,279.42,1.66
236,Akdepe,100,TM,2021-12-02 15:46:06,79,42.0551,59.3788,281.2,5.34
237,Saint-Joseph,48,RE,2021-12-02 15:46:06,81,-21.3667,55.6167,298.36,6.23
238,Lengshuijiang,42,CN,2021-12-02 15:46:06,52,27.6881,111.4294,282.74,0.49
239,Gillette,1,US,2021-12-02 15:46:07,46,44.2911,-105.5022,285.82,5.81
240,Mount Isa,7,AU,2021-12-02 15:42:28,21,-20.7333,139.5,306.02,5.66
241,Port Shepstone,84,ZA,2021-12-02 15:40:56,89,-30.7414,30.455,295.55,9.7
242,Zeya,16,RU,2021-12-02 15:46:08,68,53.75,127.2667,256.56,2.88
243,Berlevåg,75,NO,2021-12-02 15:46:08,80,70.8578,29.0864,271.12,9.26
244,Anito,95,PH,2021-12-02 15:46:09,85,12.4497,125.2886,298.68,6.17
245,Oddur,23,SO,2021-12-02 15:46:10,36,4.1213,43.8894,300.92,4.44
246,Yar-Sale,100,RU,2021-12-02 15:41:21,93,66.8333,70.8333,257.59,6.87
247,Terrace Bay,100,CA,2021-12-02 15:46:11,78,48.7834,-87.1,267.94,7.19
248,Galle,18,LK,2021-12-02 15:46:11,79,6.0367,80.217,299.6,1.26
249,Kurduvādi,77,IN,2021-12-02 15:46:11,89,18.0833,75.4333,295.2,1.1
250,Gebog,100,ID,2021-12-02 15:46:12,89,-6.735,110.8444,297.68,0.68
251,Omboué,99,GA,2021-12-02 15:46:13,81,-1.5746,9.2618,300.21,3.9
252,Carballo,45,ES,2021-12-02 15:46:13,77,43.213,-8.691,285.38,3.32
253,Tual,100,ID,2021-12-02 15:43:00,77,-5.6667,132.75,300.77,4.09
254,Puerto Ayora,33,EC,2021-12-02 15:41:05,77,-0.7393,-90.3518,296.13,4.39
255,Aykhal,12,RU,2021-12-02 15:46:14,100,66.0,111.5,239.21,1.3
256,Erlangen,75,DE,2021-12-02 15:46:14,86,49.5897,11.0039,276.33,2.24
257,Marrakesh,75,MA,2021-12-02 15:45:16,63,31.6315,-8.0083,288.19,5.14
258,Urazovo,96,RU,2021-12-02 15:46:14,84,50.0836,38.0395,275.1,6.75
259,Tuatapere,97,NZ,2021-12-02 15:40:56,96,-46.1333,167.6833,286.38,1.56
260,Borogontsy,69,RU,2021-12-02 15:46:15,95,62.6683,131.1683,241.11,3.79
261,Chicama,100,PE,2021-12-02 15:46:15,63,-7.8447,-79.1469,291.45,3.88
262,Pisco,20,PE,2021-12-02 15:40:41,73,-13.7,-76.2167,294.18,3.09
263,Beringovskiy,100,RU,2021-12-02 15:39:12,97,63.05,179.3167,267.51,6.97
264,Maxixe,0,MZ,2021-12-02 15:46:16,65,-23.8597,35.3472,301.05,7.15
265,Hambantota,40,LK,2021-12-02 15:42:18,100,6.1241,81.1185,299.34,1.03
266,Krasnyy Chikoy,100,RU,2021-12-02 15:46:16,77,50.3643,108.7512,268.31,4.14
267,Ixtapa,1,MX,2021-12-02 15:42:55,83,20.7,-105.2,293.72,2.06
268,Diveyevo,91,RU,2021-12-02 15:46:17,64,55.0433,43.2418,269.38,4.54
269,Manta,75,EC,2021-12-02 15:41:32,78,-0.95,-80.7333,298.03,3.6
270,Kesova Gora,100,RU,2021-12-02 15:46:17,96,57.5836,37.2922,268.05,3.55
271,Hongjiang,24,CN,2021-12-02 15:46:18,70,27.11,109.9956,282.27,0.58
272,Kavaratti,60,IN,2021-12-02 15:41:07,77,10.5669,72.642,300.84,2.32
273,Byron Bay,86,AU,2021-12-02 15:43:56,92,-28.65,153.6167,295.3,4.55
274,Alyangula,100,AU,2021-12-02 15:46:18,100,-13.8483,136.4192,300.08,2.06
275,Nardaran,90,AZ,2021-12-02 15:46:19,87,40.5561,50.0056,280.95,7.2
276,Kibaya,83,TZ,2021-12-02 15:46:19,49,-5.3,36.5667,294.85,4.93
277,Henties Bay,0,NA,2021-12-02 15:41:34,74,-22.116,14.2845,291.4,6.13
278,Birao,56,CF,2021-12-02 15:41:11,19,10.2849,22.7882,303.37,2.66
279,Lidköping,32,SE,2021-12-02 15:41:50,89,58.5052,13.1577,267.82,1.54
280,Havre-St-Pierre,40,CA,2021-12-02 15:46:20,69,50.2334,-63.5986,272.15,2.06
281,Sinnamary,46,GF,2021-12-02 15:46:21,69,5.3833,-52.95,301.79,4.83
282,Oktyabr'skoye,40,RU,2021-12-02 15:46:21,92,43.0645,44.7417,272.23,3.0
283,Dovolnoye,100,RU,2021-12-02 15:46:22,78,54.4958,79.6671,270.93,7.15
284,Neuquén,0,AR,2021-12-02 15:43:20,37,-38.9516,-68.0591,294.09,2.57
285,Craig,1,US,2021-12-02 15:46:22,93,40.5153,-107.5464,274.94,0.0
286,Bisira,90,PA,2021-12-02 15:46:23,70,8.5196,-81.7115,292.63,3.28
287,São Lourenço do Sul,96,BR,2021-12-02 15:46:23,62,-31.3653,-51.9783,297.18,4.94
288,Stornoway,20,GB,2021-12-02 15:46:24,78,58.2093,-6.3865,277.13,0.89
289,Eskilstuna,100,SE,2021-12-02 15:42:02,89,59.3666,16.5077,269.26,3.13
290,Coquimbo,75,CL,2021-12-02 15:40:34,67,-29.9533,-71.3436,290.0,5.66
291,Acheng,92,CN,2021-12-02 15:46:24,92,45.5454,126.977,261.11,4.43
292,Christchurch,90,NZ,2021-12-02 15:41:59,91,-43.5333,172.6333,289.21,3.13
293,La Ronge,90,CA,2021-12-02 15:46:24,85,55.1001,-105.2842,259.29,0.51
294,Ojinaga,1,MX,2021-12-02 15:46:25,52,29.5667,-104.4167,291.68,0.0
295,Korla,0,CN,2021-12-02 15:41:32,51,41.7597,86.1469,269.8,2.16
296,Nome,1,US,2021-12-02 15:46:25,76,64.5011,-165.4064,245.19,2.06
297,Dali,35,CN,2021-12-02 15:41:36,90,25.7,100.1833,281.5,1.1
298,Atar,100,MR,2021-12-02 15:42:36,12,20.5169,-13.0499,300.0,6.23
299,Barentu,0,ER,2021-12-02 15:46:26,26,15.1139,37.5928,300.36,5.61
300,Beloha,6,MG,2021-12-02 15:46:27,69,-25.1667,45.05,298.31,6.86
301,Kalulushi,79,ZM,2021-12-02 15:46:27,33,-12.8378,28.0919,300.5,3.39
302,Chumikan,7,RU,2021-12-02 15:46:28,85,54.7183,135.315,251.24,8.34
303,Coos Bay,90,US,2021-12-02 15:44:53,97,43.3665,-124.2179,284.14,2.06
304,Kasongo-Lunda,62,CD,2021-12-02 15:46:28,75,-6.4667,16.8167,300.23,0.79
305,Necochea,29,AR,2021-12-02 15:42:49,36,-38.5473,-58.7368,300.39,1.83
306,Batangafo,87,CF,2021-12-02 15:46:29,24,7.3008,18.2833,306.87,1.21
307,Guerrero Negro,1,MX,2021-12-02 15:46:29,76,27.9769,-114.0611,291.77,2.74
308,Swift Current,90,CA,2021-12-02 15:46:30,93,50.2834,-107.8014,273.6,3.6
309,Geraldton,90,AU,2021-12-02 15:41:24,77,-28.7667,114.6,293.38,10.8
310,Hue,40,VN,2021-12-02 15:46:30,88,16.4667,107.6,292.21,2.06
311,Saint Anthony,1,US,2021-12-02 15:46:31,68,45.0205,-93.218,279.14,1.34
312,Port Hawkesbury,90,CA,2021-12-02 15:46:31,88,45.6169,-61.3485,277.98,0.89
313,Karlivka,98,UA,2021-12-02 15:46:31,87,49.4567,35.1295,276.78,6.29
314,Loudi,27,CN,2021-12-02 15:46:32,39,27.7344,111.9944,282.74,0.79
315,Tsiroanomandidy,64,MG,2021-12-02 15:46:32,51,-18.7667,46.0333,299.37,2.82
316,Harper,53,LR,2021-12-02 15:46:32,75,4.375,-7.7169,301.35,3.37
317,Acapulco de Juárez,1,MX,2021-12-02 15:37:59,78,16.8634,-99.8901,299.05,1.54
318,Nouadhibou,100,MR,2021-12-02 15:46:33,33,20.931,-17.0347,296.14,9.26
319,Bakaly,92,RU,2021-12-02 15:46:33,88,55.1789,53.8028,271.73,5.9
320,Olden,99,NO,2021-12-02 15:46:33,95,61.8364,6.8064,272.66,2.27
321,Araguaçu,100,BR,2021-12-02 15:46:34,75,-12.9306,-49.8264,301.47,1.84
322,Vestmannaeyjar,40,IS,2021-12-02 15:40:48,75,63.4427,-20.2734,278.7,10.8
323,Bandarbeyla,3,SO,2021-12-02 15:46:35,68,9.4942,50.8122,298.73,7.85
324,Gijang,0,KR,2021-12-02 15:46:35,62,35.2442,129.2139,273.0,4.08
325,Alvorada,100,BR,2021-12-02 15:44:33,88,-12.48,-49.1247,298.28,3.64
326,Kumul,63,CN,2021-12-02 15:39:21,59,42.8,93.45,270.5,1.04
327,Tynda,94,RU,2021-12-02 15:46:35,82,55.1667,124.7167,252.52,2.3
328,Arman',98,RU,2021-12-02 15:46:36,95,59.7,150.1667,253.33,10.36
329,Naze,19,JP,2021-12-02 15:46:36,74,28.3667,129.4833,286.22,3.61
330,Milton Keynes,0,GB,2021-12-02 15:46:36,68,52.0417,-0.7558,276.96,3.09
331,Kumano,63,JP,2021-12-02 15:46:37,77,34.3442,132.5894,279.76,3.79
332,Pemba,20,MZ,2021-12-02 15:46:37,74,-12.974,40.5178,302.54,4.47
333,Buala,75,SB,2021-12-02 15:46:37,82,-8.145,159.5921,299.27,0.9
334,Nantai,21,CN,2021-12-02 15:46:38,56,40.9241,122.8044,270.47,4.79
335,Belle Fourche,100,US,2021-12-02 15:46:38,22,44.6714,-103.8522,291.78,1.71
336,Huangmei,87,CN,2021-12-02 15:46:39,41,30.1924,116.025,281.43,2.06
337,Conceição da Barra,76,BR,2021-12-02 15:46:39,69,-18.5933,-39.7322,301.42,5.33
338,Bonfim,92,BR,2021-12-02 15:46:40,63,3.0833,-59.95,301.12,4.33
339,Port Moresby,40,PG,2021-12-02 15:46:40,94,-9.4431,147.1797,298.83,2.06
340,Palmas Bellas,44,PA,2021-12-02 15:46:40,73,9.2319,-80.0867,304.32,5.08
341,Roald,90,NO,2021-12-02 15:46:41,80,62.5833,6.1333,273.71,1.54
342,Mahon,75,ES,2021-12-02 15:46:41,87,39.8885,4.2658,282.46,1.03
343,Kokopo,70,PG,2021-12-02 15:46:41,86,-4.352,152.2633,298.61,2.27
344,Krapivinskiy,91,RU,2021-12-02 15:46:42,90,54.9992,86.8133,266.95,2.24
345,Neyshabur,100,IR,2021-12-02 15:46:42,29,36.2133,58.7958,288.11,2.02
346,Mengyin,3,CN,2021-12-02 15:46:42,50,35.7069,117.9264,276.17,1.97
347,Vanimo,83,PG,2021-12-02 15:40:05,88,-2.6741,141.3028,298.62,0.96
348,Lüderitz,71,NA,2021-12-02 15:46:43,48,-26.6481,15.1594,296.24,15.71
349,Talaya,100,RU,2021-12-02 15:42:28,99,61.3833,152.75,243.21,2.89
350,Sauda,79,NO,2021-12-02 15:46:44,96,59.6506,6.3542,275.2,0.65
351,Amahai,100,ID,2021-12-02 15:46:44,83,-3.3333,128.9167,298.72,2.83
352,Koungou,75,YT,2021-12-02 15:46:45,78,-12.7336,45.2042,300.99,3.09
353,Faya,0,SA,2021-12-02 15:46:45,51,18.3851,42.4509,290.21,1.09
354,College,90,US,2021-12-02 15:40:50,77,64.8569,-147.8028,254.12,0.0
355,Waipawa,99,NZ,2021-12-02 15:46:45,91,-41.4122,175.5153,288.5,3.35
356,Praia,90,CV,2021-12-02 15:40:18,53,14.9215,-23.5087,299.45,9.26
357,Bragança,75,BR,2021-12-02 15:46:46,43,-1.0536,-46.7656,307.32,2.75
358,Santa Cruz de Tenerife,75,ES,2021-12-02 15:46:46,78,28.4682,-16.2546,296.05,2.24
359,Ha Giang,4,VN,2021-12-02 15:46:46,85,22.8333,104.9833,286.99,0.97
360,Khanbari,54,NP,2021-12-02 15:46:47,83,27.3747,87.2039,287.8,1.0
361,Agropoli,97,IT,2021-12-02 15:46:47,72,40.3469,14.9966,289.3,8.11
362,Golyshmanovo,100,RU,2021-12-02 15:46:47,99,56.3979,68.3728,273.77,4.77
363,Pamekasan,94,ID,2021-12-02 15:46:48,85,-7.1568,113.4746,299.44,1.16
364,Tongliao,2,CN,2021-12-02 15:46:48,80,43.6125,122.2653,263.19,4.33
365,Ryōtsu-minato,32,JP,2021-12-02 15:46:49,70,38.0833,138.4333,282.73,6.5
366,Abrau-Dyurso,49,RU,2021-12-02 15:46:49,74,44.69,37.59,282.86,9.01
367,Domoni,22,KM,2021-12-02 15:46:49,78,-12.2569,44.5319,299.84,2.05
368,Vidim,100,RU,2021-12-02 15:46:50,96,56.4088,103.1106,268.99,3.06
369,Nouakchott,100,MR,2021-12-02 15:42:22,27,18.0858,-15.9785,305.11,5.3
370,Abu Samrah,0,SY,2021-12-02 15:46:50,45,35.3029,37.1841,286.12,1.94
371,Ostrovnoy,100,RU,2021-12-02 15:41:07,73,68.0531,39.5131,270.53,10.88
372,Juneau,90,US,2021-12-02 15:42:20,97,58.3019,-134.4197,273.27,4.12
373,Leningradskiy,86,RU,2021-12-02 15:40:55,96,69.3833,178.4167,247.54,4.26
374,Kidal,9,ML,2021-12-02 15:39:08,8,18.4411,1.4078,304.71,2.51
375,Port Hedland,79,AU,2021-12-02 15:42:35,74,-20.3167,118.5667,302.18,4.63
376,Korem,0,ET,2021-12-02 15:46:51,43,12.5058,39.5228,285.84,2.55
377,Bouloupari,97,NC,2021-12-02 15:46:51,85,-21.8667,166.05,297.1,2.06
378,Belūsovka,3,KZ,2021-12-02 15:46:52,92,50.1339,82.5239,260.62,0.0
379,Oodweyne,0,SO,2021-12-02 15:46:52,37,9.4092,45.064,294.08,4.88
380,Nabire,100,ID,2021-12-02 15:46:52,89,-3.3667,135.4833,297.82,0.97
381,Poum,97,NC,2021-12-02 15:46:52,78,-20.2333,164.0167,300.38,7.95
382,Aktash,0,RU,2021-12-02 15:46:53,55,50.3,87.7333,254.83,2.11
383,Gulbene,100,LV,2021-12-02 15:46:53,97,57.1777,26.7529,271.71,2.43
384,Traverse City,90,US,2021-12-02 15:46:53,74,44.7631,-85.6206,280.56,11.83
385,Itarema,90,BR,2021-12-02 15:46:54,54,-2.9248,-39.9167,305.16,7.2
386,Champerico,44,GT,2021-12-02 15:46:54,64,14.3,-91.9167,305.57,2.68
387,Hastings,13,GB,2021-12-02 15:37:11,66,50.8552,0.5729,278.04,8.82
388,Zhalantun,1,CN,2021-12-02 15:46:54,76,48.0,122.7167,262.0,2.86
389,Luganville,79,VU,2021-12-02 15:41:31,90,-15.5333,167.1667,298.41,3.84
390,Lorengau,100,PG,2021-12-02 15:42:35,76,-2.0226,147.2712,300.54,1.5
391,Muli,22,MV,2021-12-02 15:46:55,78,2.9167,73.5667,301.12,3.4
392,Jacksonville,1,US,2021-12-02 15:37:31,65,30.3322,-81.6556,292.05,1.34
393,Qasigiannguit,100,GL,2021-12-02 15:46:55,92,68.8193,-51.1922,271.29,8.24
394,Husavik,81,IS,2021-12-02 15:41:05,86,66.0449,-17.3389,276.1,5.39
395,Tarakan,69,ID,2021-12-02 15:46:56,74,3.3,117.6333,300.57,1.17
396,Lyantonde,45,UG,2021-12-02 15:46:56,83,-0.4031,31.1572,292.52,1.61
397,San Patricio,47,US,2021-12-02 15:39:14,78,28.017,-97.5169,295.33,2.31
398,Sur,0,OM,2021-12-02 15:38:27,60,22.5667,59.5289,296.63,1.23
399,Nicoya,73,CR,2021-12-02 15:46:56,66,10.1483,-85.452,301.9,4.19
400,Eyl,3,SO,2021-12-02 15:46:58,61,7.9803,49.8164,298.69,8.58
401,Anadyr,40,RU,2021-12-02 15:40:09,86,64.75,177.4833,265.43,13.0
402,Tevaitoa,87,PF,2021-12-02 15:46:58,74,-16.7833,-151.5,300.42,9.2
403,Mumbwa,67,ZM,2021-12-02 15:40:44,23,-14.9783,27.0619,304.12,3.24
404,Shenjiamen,0,CN,2021-12-02 15:46:59,49,29.9576,122.298,283.51,6.33
405,Spas-Klepiki,100,RU,2021-12-02 15:46:59,91,55.1347,40.1767,269.05,4.7
406,Plátanos,84,GR,2021-12-02 15:46:59,86,37.6667,21.6167,287.08,1.98
407,Kapit,98,MY,2021-12-02 15:47:00,99,2.0167,112.9333,296.51,0.38
408,Petropavlovsk-Kamchatskiy,90,RU,2021-12-02 15:47:00,93,53.0452,158.6483,272.48,4.0
409,Birjand,75,IR,2021-12-02 15:47:01,25,32.8663,59.2211,288.41,6.17
410,St. George's,75,GD,2021-12-02 15:45:51,74,12.0564,-61.7485,301.97,10.29
411,Saskylakh,90,RU,2021-12-02 15:40:23,100,71.9167,114.0833,232.44,1.12
412,Kabanjahe,100,ID,2021-12-02 15:47:01,98,3.1001,98.4908,289.57,1.13
413,Adrar,99,MR,2021-12-02 15:47:01,10,20.5022,-10.0711,299.96,6.31
414,Pital,95,CO,2021-12-02 15:47:02,68,2.2665,-75.8044,298.66,1.03
415,Arkhara,57,RU,2021-12-02 15:47:02,100,49.4212,130.0842,250.17,1.54
416,Lavrentiya,34,RU,2021-12-02 15:41:22,84,65.5833,-171.0,249.01,1.3
417,Auki,96,SB,2021-12-02 15:47:02,85,-8.7676,160.7034,298.58,0.54
418,Nantucket,20,US,2021-12-02 15:39:03,81,41.2835,-70.0995,286.5,6.69
419,Talgar,20,KZ,2021-12-02 15:47:03,80,43.3027,77.2395,271.24,1.0
420,Vardø,75,NO,2021-12-02 15:41:25,74,70.3705,31.1107,272.14,10.29
421,Barcelos,17,PT,2021-12-02 15:47:03,59,41.5388,-8.6151,286.23,4.17
422,Kayseri Province,0,TR,2021-12-02 15:47:04,64,38.737,35.4968,275.16,0.0
423,Ongandjera,83,NA,2021-12-02 15:47:04,37,-17.8833,15.0667,301.06,3.81
424,Falam,18,MM,2021-12-02 15:47:04,93,22.9167,93.6833,284.44,0.85
425,Dicabisagan,86,PH,2021-12-02 15:47:04,86,17.0818,122.4157,295.13,3.84
426,Hirara,100,JP,2021-12-02 15:41:28,63,24.8,125.2833,292.09,8.24
427,Kandrian,97,PG,2021-12-02 15:47:05,87,-6.2167,149.55,298.8,3.18
428,Tonj,87,SS,2021-12-02 15:47:05,43,7.2737,28.6822,302.75,2.71
429,Blythe,1,US,2021-12-02 15:47:05,25,33.6103,-114.5964,281.4,2.57
430,Conakry,75,GN,2021-12-02 15:43:33,66,9.538,-13.6773,305.19,5.14
431,Cherëmukhovo,49,RU,2021-12-02 15:47:06,92,60.3484,59.9851,261.87,2.37
432,Ranong,84,TH,2021-12-02 15:47:06,87,9.9658,98.6348,297.94,2.59
433,Buckeye,1,US,2021-12-02 15:45:00,24,33.3703,-112.5838,295.93,2.57
434,Iquitos,75,PE,2021-12-02 15:47:06,78,-3.7481,-73.2472,301.17,1.54
435,Salé,75,MA,2021-12-02 15:47:07,82,34.0389,-6.8166,289.12,4.63
436,Metro,97,ID,2021-12-02 15:47:07,86,-5.1131,105.3067,298.45,0.68
437,Iranshahr,0,IR,2021-12-02 15:47:07,26,27.2025,60.6848,295.34,2.06
438,Mersin Province,0,TR,2021-12-02 15:47:08,57,36.862,34.6509,285.79,2.0
439,Katsuura,96,JP,2021-12-02 15:40:54,66,35.1333,140.3,284.21,8.97
440,Aran,0,AZ,2021-12-02 15:47:08,66,40.6253,46.9756,282.97,3.6
441,Havelock,38,US,2021-12-02 15:41:34,58,34.8791,-76.9013,292.12,2.68
442,Tainan City,40,TW,2021-12-02 15:45:35,72,22.9908,120.2133,291.03,3.6
443,Mayo,1,US,2021-12-02 15:47:09,64,38.8876,-76.5119,287.78,2.24
444,Umluj,63,SA,2021-12-02 15:41:27,61,25.0213,37.2685,297.81,5.24
445,Sungai Penuh,79,ID,2021-12-02 15:47:09,76,-2.0833,101.3833,291.15,0.98
446,Motygino,99,RU,2021-12-02 15:47:10,88,58.1831,94.7592,270.06,3.96
447,Muros,11,ES,2021-12-02 15:41:34,65,42.7762,-9.0603,285.98,5.56
448,Sarab,13,IR,2021-12-02 15:47:10,39,38.6066,44.9883,278.09,2.18
449,Rosarito,0,MX,2021-12-02 15:47:10,70,32.3333,-117.0333,287.64,0.22
450,Kaduqli,53,SD,2021-12-02 15:47:12,21,11.0167,29.7167,303.86,2.9
451,Amapá,100,BR,2021-12-02 15:47:12,75,1.0,-52.0,301.25,1.41
452,Mwingi,44,KE,2021-12-02 15:47:12,93,-0.9344,38.0601,292.29,1.43
453,Azuqueca de Henares,20,ES,2021-12-02 15:47:13,53,40.5669,-3.2599,283.12,8.23
454,Katherine,83,AU,2021-12-02 15:47:13,42,-14.4667,132.2667,304.33,3.09
455,Terney,100,RU,2021-12-02 15:47:13,72,45.0503,136.6092,270.83,2.8
456,El Alto,92,PE,2021-12-02 15:47:13,69,-4.2714,-81.2147,297.96,5.35
457,Paita,79,PE,2021-12-02 15:47:14,72,-5.0892,-81.1144,299.46,4.49
458,Barra do Garças,75,BR,2021-12-02 15:47:14,62,-15.89,-52.2567,305.47,3.09
459,Mendoza,40,AR,2021-12-02 15:44:06,53,-32.8908,-68.8272,298.89,3.6
460,General Roca,100,AR,2021-12-02 15:47:14,23,-39.0333,-67.5833,299.05,3.07
461,Benguela,52,AO,2021-12-02 15:47:15,73,-12.5763,13.4055,299.94,4.24
462,Beyneu,89,KZ,2021-12-02 15:47:15,57,45.3167,55.2,277.16,4.31
463,Rāvar,100,IR,2021-12-02 15:47:15,28,31.2656,56.8055,290.25,2.25
464,Sarkand,29,KZ,2021-12-02 15:47:16,50,45.41,79.9186,274.11,4.1
465,Damaturu,46,NG,2021-12-02 15:47:16,15,11.747,11.9608,305.52,4.27
466,Lashio,20,MM,2021-12-02 15:47:17,92,22.9333,97.75,286.63,0.87
467,Agirish,96,RU,2021-12-02 15:47:17,94,61.9247,63.0231,259.7,1.75
468,Koumac,92,NC,2021-12-02 15:47:17,80,-20.5667,164.2833,299.44,1.83
469,Los Llanos de Aridane,75,ES,2021-12-02 15:42:58,65,28.6585,-17.9182,292.66,5.81
470,Soyo,41,AO,2021-12-02 15:47:18,79,-6.1349,12.3689,303.18,4.24
471,Grande Prairie,1,CA,2021-12-02 15:47:18,50,55.1667,-118.8027,271.25,13.38
472,Padang,92,ID,2021-12-02 15:40:05,79,-0.9492,100.3543,299.18,0.91
473,Roebourne,84,AU,2021-12-02 15:43:01,30,-20.7833,117.1333,304.69,6.19
474,Grindavik,75,IS,2021-12-02 15:47:18,81,63.8424,-22.4338,277.41,9.77
475,Doaba,0,PK,2021-12-02 15:47:19,26,33.4244,70.7364,286.47,2.01
476,Mbekenyera,12,TZ,2021-12-02 15:47:19,56,-10.0,38.9833,299.21,4.91
477,Guiratinga,66,BR,2021-12-02 15:47:19,60,-16.3494,-53.7583,303.26,2.71
478,Bolshaya Dzhalga,14,RU,2021-12-02 15:47:20,69,45.9695,42.6966,277.29,2.93
479,Princeton,1,US,2021-12-02 15:47:20,64,25.5384,-80.4089,299.27,0.89
480,Coyhaique,20,CL,2021-12-02 15:41:20,47,-45.5752,-72.0662,287.12,1.54
481,Dhārchula,100,IN,2021-12-02 15:47:21,93,29.85,80.5333,286.81,1.92
482,Mareeba,88,AU,2021-12-02 15:42:33,95,-17.0,145.4333,297.55,0.51
483,Alice Springs,2,AU,2021-12-02 15:43:35,52,-23.7,133.8833,293.9,0.0
484,Smithers,20,CA,2021-12-02 15:44:39,86,54.7804,-127.1743,268.33,4.12
485,Namtsy,72,RU,2021-12-02 15:47:21,90,62.7161,129.6658,244.21,5.16
486,Sozimskiy,100,RU,2021-12-02 15:47:22,90,59.7418,52.2482,266.42,4.18
487,Xining,100,CN,2021-12-02 15:47:22,41,36.6167,101.7667,269.85,1.22
488,Vokhma,100,RU,2021-12-02 15:47:22,91,58.9303,46.7586,265.45,4.58
489,Prince Rupert,90,CA,2021-12-02 15:47:23,67,54.3161,-130.3201,277.2,5.14
490,Māndal,82,IN,2021-12-02 15:47:23,54,25.45,74.5667,289.17,2.76
491,Vao,100,NC,2021-12-02 15:39:39,82,-22.6667,167.4833,297.37,8.61
492,Tilichiki,100,RU,2021-12-02 15:47:25,98,60.4667,166.1,274.64,12.06
493,Ziway,7,ET,2021-12-02 15:47:25,32,7.9333,38.7167,295.14,5.19
494,Bairiki Village,20,KI,2021-12-02 15:47:25,74,1.3292,172.9752,300.15,2.57
495,Acaraú,82,BR,2021-12-02 15:47:25,54,-2.8856,-40.12,305.37,8.0
496,Clyde River,100,CA,2021-12-02 15:39:14,85,70.4692,-68.5914,258.28,4.63
497,Tautira,85,PF,2021-12-02 15:47:26,77,-17.7333,-149.15,299.16,10.29
498,The Hammocks,1,US,2021-12-02 15:47:26,64,25.6715,-80.4445,299.27,3.09
499,Port Blair,97,IN,2021-12-02 15:40:58,89,11.6667,92.75,299.06,6.23
500,Takaka,100,NZ,2021-12-02 15:47:28,98,-40.85,172.8,291.47,0.41
501,Cockburn Town,6,TC,2021-12-02 15:39:18,73,21.4612,-71.1419,300.33,6.12
502,Chake Chake,42,TZ,2021-12-02 15:47:28,77,-5.2459,39.7666,298.84,3.0
503,Douglas,1,US,2021-12-02 15:45:57,59,41.3,-96.167,287.67,0.45
504,Salamiyah,1,SY,2021-12-02 15:47:28,54,35.0113,37.0532,285.84,2.99
505,Khilok,100,RU,2021-12-02 15:47:29,89,51.3674,110.4676,267.07,6.03
506,Salalah,40,OM,2021-12-02 15:47:29,61,17.0151,54.0924,300.2,0.51
507,Varberg,12,SE,2021-12-02 15:47:29,89,57.1056,12.2508,269.4,2.29
508,Ayaviri,100,PE,2021-12-02 15:47:30,50,-14.8864,-70.5889,286.22,1.9
509,Watsa,94,CD,2021-12-02 15:47:31,72,3.0372,29.5355,295.67,2.32
510,Aylesbury,6,GB,2021-12-02 15:47:31,82,51.8167,-0.8146,277.62,3.62
511,Batemans Bay,66,AU,2021-12-02 15:47:32,96,-35.7167,150.1833,292.65,1.5
512,Blechepsin,9,RU,2021-12-02 15:47:32,81,44.8203,40.5003,278.32,2.3
513,Bereket,80,TM,2021-12-02 15:47:32,76,39.2446,55.5154,285.84,3.53
514,Pestravka,99,RU,2021-12-02 15:47:33,79,52.405,49.9583,272.11,5.95
515,Port Macquarie,90,AU,2021-12-02 15:44:10,100,-31.4333,152.9167,293.09,1.54
516,Semikarakorsk,62,RU,2021-12-02 15:47:33,80,47.5194,40.8112,277.6,3.42
517,Leh,68,IN,2021-12-02 15:47:33,51,34.1667,77.5833,267.1,2.01
518,Tarata,100,BO,2021-12-02 15:47:34,46,-17.6167,-66.0167,290.97,2.7
519,Thio,99,NC,2021-12-02 15:39:24,88,-21.6167,166.2167,297.13,4.13
520,Maceió,40,BR,2021-12-02 15:44:51,52,-9.6658,-35.7353,306.84,7.2
521,Cam Ranh,40,VN,2021-12-02 15:47:34,69,11.9214,109.1591,298.13,8.23
522,Buta,100,CD,2021-12-02 15:47:34,65,2.7858,24.73,300.6,0.71
523,Victor Harbor,10,AU,2021-12-02 15:47:35,86,-35.5667,138.6167,287.85,3.51
524,Palomares,100,MX,2021-12-02 15:47:35,92,17.15,-95.0667,295.06,4.2
525,Betioky,77,MG,2021-12-02 15:47:35,60,-23.7167,44.3833,299.63,4.92
526,Udachny,64,RU,2021-12-02 15:34:05,100,66.4167,112.4,235.87,1.29
527,Brody,93,UA,2021-12-02 15:47:36,87,50.0879,25.1503,278.23,4.44
528,Leshukonskoye,100,RU,2021-12-02 15:41:37,95,64.8989,45.7622,265.18,3.12
529,Edinburgh,0,GB,2021-12-02 15:46:22,75,55.9521,-3.1965,276.35,1.34
530,Kathmandu,75,NP,2021-12-02 15:42:37,72,27.7167,85.3167,287.27,0.0
531,Ust'-Ordynskiy,100,RU,2021-12-02 15:47:36,93,52.805,104.7508,271.06,1.56
532,Philadelphia,90,US,2021-12-02 15:43:39,72,39.9523,-75.1638,286.6,1.79
533,Khabary,99,RU,2021-12-02 15:47:37,77,53.6259,79.5345,270.79,7.65
534,Turukhansk,100,RU,2021-12-02 15:40:14,94,65.8167,87.9833,259.57,9.07
535,Pimenta Bueno,96,BR,2021-12-02 15:42:41,70,-11.6725,-61.1936,302.43,2.65
536,Scottsbluff,1,US,2021-12-02 15:47:37,41,41.8666,-103.6672,290.53,3.13
537,Kashary,95,RU,2021-12-02 15:47:37,91,49.04,41.0056,272.69,4.61
538,Araouane,32,ML,2021-12-02 15:47:38,8,18.9048,-3.5265,305.94,1.66
539,Pampa,1,US,2021-12-02 15:47:38,33,35.5362,-100.9599,287.14,2.06
540,Bac Lieu,100,VN,2021-12-02 15:41:14,78,9.285,105.7244,297.61,2.29
541,Kontagora,76,NG,2021-12-02 15:47:39,13,10.3999,5.4695,308.6,0.89
542,Inhambane,0,MZ,2021-12-02 15:47:39,65,-23.865,35.3833,301.14,7.15
543,Liberal,1,US,2021-12-02 15:47:39,39,37.0431,-100.921,281.73,4.12
544,Mt. Pleasant,1,US,2021-12-02 15:45:08,55,32.7941,-79.8626,292.58,0.89
545,Tot'ma,100,RU,2021-12-02 15:47:40,94,59.9747,42.7642,262.13,3.7
546,Qax,2,AZ,2021-12-02 15:47:40,57,41.4225,46.9242,278.7,2.15
547,Mercedes,0,AR,2021-12-02 15:47:40,32,-34.6515,-59.4307,299.92,3.47
548,Mount Gambier,90,AU,2021-12-02 15:40:46,87,-37.8333,140.7667,282.1,0.0
549,Lompoc,90,US,2021-12-02 15:38:57,100,34.6391,-120.4579,283.97,1.54
550,Champasak,44,LA,2021-12-02 15:47:42,85,14.75,106.0,291.02,0.53
551,Gamba,99,GA,2021-12-02 15:47:43,79,-2.65,10.0,300.07,4.06
552,Isangel,100,VU,2021-12-02 15:47:43,84,-19.55,169.2667,298.16,4.29
553,Vallenar,8,CL,2021-12-02 15:45:15,22,-28.5708,-70.7581,300.64,3.59
554,Halifax,90,CA,2021-12-02 15:45:31,86,44.6453,-63.5724,282.16,2.24
555,Key Largo,3,US,2021-12-02 15:46:47,63,25.0865,-80.4473,299.81,3.08
556,Sambava,2,MG,2021-12-02 15:47:43,78,-14.2667,50.1667,299.26,6.04
557,Maumere,100,ID,2021-12-02 15:47:44,77,-8.6199,122.2111,300.83,0.61
558,Bocas del Toro,95,PA,2021-12-02 15:47:44,70,9.3333,-82.25,303.19,1.56
559,Ca Mau,99,VN,2021-12-02 15:47:45,82,9.1769,105.15,297.4,0.95
560,Zdvinsk,100,RU,2021-12-02 15:47:45,76,54.7021,78.661,272.14,7.49
561,Karratha,79,AU,2021-12-02 15:39:47,38,-20.7377,116.8463,303.43,6.7
562,Emporia,1,US,2021-12-02 15:47:46,41,38.4039,-96.1817,286.26,3.09
563,Lagoa Nova,87,BR,2021-12-02 15:47:46,26,-6.1,-36.4833,306.85,4.08
564,Esim,42,GH,2021-12-02 15:47:47,73,4.8699,-2.2405,301.72,3.34
565,Chipata,40,ZM,2021-12-02 15:47:47,35,-13.6333,32.65,300.98,5.16
566,Burē,94,ET,2021-12-02 15:47:47,44,10.7,37.0667,291.99,2.0
567,Klaksvík,100,FO,2021-12-02 15:39:07,65,62.2266,-6.589,274.66,7.15
568,Vaitape,51,PF,2021-12-02 15:47:47,72,-16.5167,-151.75,300.54,8.19
569,At-Bashi,31,KG,2021-12-02 15:47:48,50,41.1702,75.8106,263.95,1.56
570,Bojnourd,0,IR,2021-12-02 15:47:48,58,37.4747,57.329,286.12,3.09
571,Iglesias,100,IT,2021-12-02 15:47:48,84,39.3114,8.535,284.14,3.43
572,Novo Aripuanã,62,BR,2021-12-02 15:47:49,69,-5.1206,-60.3797,302.99,1.55
573,Meadow Lake,99,US,2021-12-02 15:47:49,22,34.8014,-106.5436,286.86,1.1
574,São João da Barra,26,BR,2021-12-02 15:39:41,74,-21.6403,-41.0511,301.2,6.56
575,Obo,69,CF,2021-12-02 15:47:49,69,5.3998,26.4869,298.3,0.9
576,Port Lincoln,5,AU,2021-12-02 15:45:31,84,-34.7333,135.8667,287.11,4.15
577,Queanbeyan,69,AU,2021-12-02 15:43:20,92,-35.35,149.2333,290.69,3.09
578,Punta Alta,56,AR,2021-12-02 15:47:50,49,-38.8759,-62.0736,299.41,1.46
579,Tairua,94,NZ,2021-12-02 15:47:50,92,-37.0167,175.85,291.53,2.42
580,Forsytheganj,97,BY,2021-12-02 15:47:50,90,52.6333,29.7333,277.41,5.4
581,Tromsø,0,NO,2021-12-02 15:47:51,63,69.6496,18.957,270.16,3.09
582,Evensk,100,RU,2021-12-02 15:39:13,88,61.95,159.2333,263.84,7.96
583,Shirokiy,79,RU,2021-12-02 15:47:51,98,49.758,129.523,254.01,3.29
584,Fengcheng,30,CN,2021-12-02 15:47:52,59,40.4536,124.0717,270.7,4.94
585,Ouro Preto do Oeste,100,BR,2021-12-02 15:47:52,78,-10.7481,-62.2158,299.35,3.17
